{"type":"FeatureCollection","features":[{"type":"Feature","geometry":{"type":"Point","coordinates":[-114.07838540496935,48.060503799685165]},"properties":{"NAME":"Bigfork"}},{"type":"Feature","geometry":{"type":"Point","coordinates":[-113.22981336312071,47.0730478240134]},"properties":{"NAME":"Upsata Lake"}},{"type":"Feature","geometry":{"type":"Point","coordinates":[-113.2198698357823,47.036485474365954]},"properties":{"NAME":"Monture Creek"}},{"type":"Feature","geometry":{"type":"Point","coordinates":[-113.30603653877066,47.023442626857438]},"properties":{"NAME":"Russell Gates Memorial"}},{"type":"Feature","geometry":{"type":"Point","coordinates":[-112.01591890100046,45.857954047422702]},"properties":{"NAME":"Mayflower Bridge"}},{"type":"Feature","geometry":{"type":"Point","coordinates":[-111.66152014729735,45.096652566533713]},"properties":{"NAME":"McAtee Bridge"}},{"type":"Feature","geometry":{"type":"Point","coordinates":[-111.75195779238771,45.22900290251912]},"properties":{"NAME":"Varney Bridge"}},{"type":"Feature","geometry":{"type":"Point","coordinates":[-111.75406227021392,45.299986571639153]},"properties":{"NAME":"Eight Mile Ford"}},{"type":"Feature","geometry":{"type":"Point","coordinates":[-111.74870618390997,45.314926501927971]},"properties":{"NAME":"Burnt Tree Hole"}},{"type":"Feature","geometry":{"type":"Point","coordinates":[-111.70540438594406,45.367261018484498]},"properties":{"NAME":"Valley Garden"}},{"type":"Feature","geometry":{"type":"Point","coordinates":[-114.49416277845691,48.418281890321836]},"properties":{"NAME":"Bootjack Lake"}},{"type":"Feature","geometry":{"type":"Point","coordinates":[-114.28485406500556,47.013491273846597]},"properties":{"NAME":"Erskine"}},{"type":"Feature","geometry":{"type":"Point","coordinates":[-112.44045982697149,47.54780726813641]},"properties":{"NAME":"Willow Creek Reservoir"}},{"type":"Feature","geometry":{"type":"Point","coordinates":[-111.1740234383807,46.745143656854353]},"properties":{"NAME":"Fort Logan"}},{"type":"Feature","geometry":{"type":"Point","coordinates":[-114.13737844790553,46.368383904509656]},"properties":{"NAME":"Tucker Crossing"}},{"type":"Feature","geometry":{"type":"Point","coordinates":[-113.6427811504543,46.931720482959001]},"properties":{"NAME":"Daigles Eddy"}},{"type":"Feature","geometry":{"type":"Point","coordinates":[-113.56989991247714,46.956593856922844]},"properties":{"NAME":"Belmont Creek"}},{"type":"Feature","geometry":{"type":"Point","coordinates":[-113.60723714668816,46.950424487378989]},"properties":{"NAME":"Thibodeau"}},{"type":"Feature","geometry":{"type":"Point","coordinates":[-113.60100614441663,46.942925487843354]},"properties":{"NAME":"Whitaker Bridge"}},{"type":"Feature","geometry":{"type":"Point","coordinates":[-114.70841580036743,47.343652193475791]},"properties":{"NAME":"Kookoosint"}},{"type":"Feature","geometry":{"type":"Point","coordinates":[-109.3806678006808,47.02936375153412]},"properties":{"NAME":"Spring Creek"}},{"type":"Feature","geometry":{"type":"Point","coordinates":[-108.80230161933018,45.331613576547241]},"properties":{"NAME":"Bluewater Springs"}},{"type":"Feature","geometry":{"type":"Point","coordinates":[-111.43704239302515,47.354551319791973]},"properties":{"NAME":"Truly Bridge"}},{"type":"Feature","geometry":{"type":"Point","coordinates":[-111.89019812380081,47.120913425617175]},"properties":{"NAME":"Eagle Island"}},{"type":"Feature","geometry":{"type":"Point","coordinates":[-107.46604082402847,46.144753932158167]},"properties":{"NAME":"Manuel Lisa"}},{"type":"Feature","geometry":{"type":"Point","coordinates":[-114.44143316787236,48.107321554062572]},"properties":{"NAME":"Smith Lake"}},{"type":"Feature","geometry":{"type":"Point","coordinates":[-113.99758986560867,48.021708795416139]},"properties":{"NAME":"Horseshoe Lake/Ferndale"}},{"type":"Feature","geometry":{"type":"Point","coordinates":[-115.12641045313146,48.955511424562459]},"properties":{"NAME":"Sophie Lake"}},{"type":"Feature","geometry":{"type":"Point","coordinates":[-115.09289889937374,47.542205132598689]},"properties":{"NAME":"McKay Landing"}},{"type":"Feature","geometry":{"type":"Point","coordinates":[-114.94992453265159,48.870002263843126]},"properties":{"NAME":"Glen Lake"}},{"type":"Feature","geometry":{"type":"Point","coordinates":[-114.40190730974413,48.404533932746382]},"properties":{"NAME":"Skyles Lake"}},{"type":"Feature","geometry":{"type":"Point","coordinates":[-114.36662556104039,48.393700215819024]},"properties":{"NAME":"Blanchard Lake"}},{"type":"Feature","geometry":{"type":"Point","coordinates":[-114.17103496369893,48.365818261639546]},"properties":{"NAME":"Teakettle"}},{"type":"Feature","geometry":{"type":"Point","coordinates":[-114.21426151698005,48.349897259767673]},"properties":{"NAME":"Kokanee Bend"}},{"type":"Feature","geometry":{"type":"Point","coordinates":[-113.380019649377,47.001068650887298]},"properties":{"NAME":"Clearwater Crossing"}},{"type":"Feature","geometry":{"type":"Point","coordinates":[-113.67855354818647,46.916451167758233]},"properties":{"NAME":"Johnsrud Park"}},{"type":"Feature","geometry":{"type":"Point","coordinates":[-112.31855202625039,45.632620013730303]},"properties":{"NAME":"Hell's Canyon"}},{"type":"Feature","geometry":{"type":"Point","coordinates":[-104.47529254600889,48.122476568758252]},"properties":{"NAME":"Culbertson Bridge"}},{"type":"Feature","geometry":{"type":"Point","coordinates":[-110.93725560004277,46.642736081629792]},"properties":{"NAME":"Newlan Creek Reservoir"}},{"type":"Feature","geometry":{"type":"Point","coordinates":[-104.05443870391757,47.755940009656008]},"properties":{"NAME":"Diamond Willow"}},{"type":"Feature","geometry":{"type":"Point","coordinates":[-104.15671975029015,47.673430136626365]},"properties":{"NAME":"Sidney Bridge"}},{"type":"Feature","geometry":{"type":"Point","coordinates":[-105.09636077680408,47.313169911488522]},"properties":{"NAME":"Johnson Reservoir"}},{"type":"Feature","geometry":{"type":"Point","coordinates":[-113.72594139251102,46.903934124784371]},"properties":{"NAME":"K. Ross Toole"}},{"type":"Feature","geometry":{"type":"Point","coordinates":[-114.17689561303672,46.24729796760483]},"properties":{"NAME":"Demmons"}},{"type":"Feature","geometry":{"type":"Point","coordinates":[-113.14829875112116,46.660730393889395]},"properties":{"NAME":"Drummond"}},{"type":"Feature","geometry":{"type":"Point","coordinates":[-112.11524304380067,45.324159109613241]},"properties":{"NAME":"Ruby Island"}},{"type":"Feature","geometry":{"type":"Point","coordinates":[-108.50976883582621,45.743050439910057]},"properties":{"NAME":"South Hills"}},{"type":"Feature","geometry":{"type":"Point","coordinates":[-111.72309914079753,45.344430157235578]},"properties":{"NAME":"Ennis"}},{"type":"Feature","geometry":{"type":"Point","coordinates":[-110.53962930491177,45.666088124240858]},"properties":{"NAME":"Mayor's Landing"}},{"type":"Feature","geometry":{"type":"Point","coordinates":[-114.22346680522469,48.291403467852255]},"properties":{"NAME":"Pressentine"}},{"type":"Feature","geometry":{"type":"Point","coordinates":[-114.25580768618224,48.208833940242322]},"properties":{"NAME":"Old Steel Bridge"}},{"type":"Feature","geometry":{"type":"Point","coordinates":[-114.23553159990198,48.077486423077495]},"properties":{"NAME":"Somers"}},{"type":"Feature","geometry":{"type":"Point","coordinates":[-114.1133476480794,48.09239726226722]},"properties":{"NAME":"Sportsmans Bridge"}},{"type":"Feature","geometry":{"type":"Point","coordinates":[-114.06328806677617,48.000546109932394]},"properties":{"NAME":"Woods Bay"}},{"type":"Feature","geometry":{"type":"Point","coordinates":[-114.07054740019784,47.692865771333658]},"properties":{"NAME":"Ducharme"}},{"type":"Feature","geometry":{"type":"Point","coordinates":[-111.34016146298184,47.389837564107282]},"properties":{"NAME":"Big Bend"}},{"type":"Feature","geometry":{"type":"Point","coordinates":[-111.47933479542881,44.828714455957154]},"properties":{"NAME":"Raynolds' Pass"}},{"type":"Feature","geometry":{"type":"Point","coordinates":[-108.90050082256137,45.296236458158262]},"properties":{"NAME":"Bridger"}},{"type":"Feature","geometry":{"type":"Point","coordinates":[-114.97621243946061,48.232899220953968]},"properties":{"NAME":"Island Lake"}},{"type":"Feature","geometry":{"type":"Point","coordinates":[-112.63781389087751,45.223752382766882]},"properties":{"NAME":"Blacktail Meadows"}},{"type":"Feature","geometry":{"type":"Point","coordinates":[-109.46531320224393,47.094639631216928]},"properties":{"NAME":"Reed & Bowles"}},{"type":"Feature","geometry":{"type":"Point","coordinates":[-111.5141730386903,44.831941439196576]},"properties":{"NAME":"Three Dollar Bridge"}},{"type":"Feature","geometry":{"type":"Point","coordinates":[-114.14224792490489,45.921665286633377]},"properties":{"NAME":"C. Ben White Memorial"}},{"type":"Feature","geometry":{"type":"Point","coordinates":[-111.49357468719174,46.266872147579825]},"properties":{"NAME":"York's Islands"}},{"type":"Feature","geometry":{"type":"Point","coordinates":[-114.16392368611082,46.014564037375365]},"properties":{"NAME":"Darby Bridge"}},{"type":"Feature","geometry":{"type":"Point","coordinates":[-110.89090220529376,45.308880440095685]},"properties":{"NAME":"Sunny Brook Springs"}},{"type":"Feature","geometry":{"type":"Point","coordinates":[-112.11520567568149,45.843688833326581]},"properties":{"NAME":"Piedmont Pond"}},{"type":"Feature","geometry":{"type":"Point","coordinates":[-111.71627777290779,47.53259128183025]},"properties":{"NAME":"Medicine River"}},{"type":"Feature","geometry":{"type":"Point","coordinates":[-113.97847436314959,48.041858767394793]},"properties":{"NAME":"Swan River"}},{"type":"Feature","geometry":{"type":"Point","coordinates":[-113.22434001433281,45.870663410570813]},"properties":{"NAME":"Fishtrap Creek"}},{"type":"Feature","geometry":{"type":"Point","coordinates":[-112.83750618502644,45.017819056501224]},"properties":{"NAME":"High Bridge"}},{"type":"Feature","geometry":{"type":"Point","coordinates":[-112.66907179796281,45.46666639734115]},"properties":{"NAME":"Glen"}},{"type":"Feature","geometry":{"type":"Point","coordinates":[-112.56647058393813,45.436518249733382]},"properties":{"NAME":"Tony Schoonen FAS"}},{"type":"Feature","geometry":{"type":"Point","coordinates":[-108.64226269287583,45.686964852379425]},"properties":{"NAME":"Duck Creek Bridge"}},{"type":"Feature","geometry":{"type":"Point","coordinates":[-112.1217357720269,46.938779829192292]},"properties":{"NAME":"Lichen Cliff"}},{"type":"Feature","geometry":{"type":"Point","coordinates":[-114.42124858219032,48.431098094417955]},"properties":{"NAME":"Beaver Lake"}},{"type":"Feature","geometry":{"type":"Point","coordinates":[-111.2917532483772,47.434149437001167]},"properties":{"NAME":"White Bear"}},{"type":"Feature","geometry":{"type":"Point","coordinates":[-113.43195862573054,46.700111274450698]},"properties":{"NAME":"Bearmouth"}},{"type":"Feature","geometry":{"type":"Point","coordinates":[-113.13637871905361,46.985742470162975]},"properties":{"NAME":"River Junction"}},{"type":"Feature","geometry":{"type":"Point","coordinates":[-113.0973293920308,46.980956527613813]},"properties":{"NAME":"Harry Morgan"}},{"type":"Feature","geometry":{"type":"Point","coordinates":[-113.0108618630167,46.945748504903669]},"properties":{"NAME":"Brown's Lake"}},{"type":"Feature","geometry":{"type":"Point","coordinates":[-113.05946214641226,46.897359003234193]},"properties":{"NAME":"Cedar Meadow"}},{"type":"Feature","geometry":{"type":"Point","coordinates":[-113.50276935387733,46.944398524925703]},"properties":{"NAME":"Ninemile Prairie"}},{"type":"Feature","geometry":{"type":"Point","coordinates":[-113.53851354361126,46.95138236422936]},"properties":{"NAME":"Corrick's River Bend"}},{"type":"Feature","geometry":{"type":"Point","coordinates":[-113.24022904676907,47.018389313116963]},"properties":{"NAME":"Scotty Brown Bridge"}},{"type":"Feature","geometry":{"type":"Point","coordinates":[-104.10326421471777,48.005760755794569]},"properties":{"NAME":"Snowden Bridge"}},{"type":"Feature","geometry":{"type":"Point","coordinates":[-114.66261819957292,46.989571128103286]},"properties":{"NAME":"Big Pine"}},{"type":"Feature","geometry":{"type":"Point","coordinates":[-114.44540592948715,46.991126921975585]},"properties":{"NAME":"Petty Creek"}},{"type":"Feature","geometry":{"type":"Point","coordinates":[-114.05356129393266,46.661659494563416]},"properties":{"NAME":"Chief Looking Glass"}},{"type":"Feature","geometry":{"type":"Point","coordinates":[-114.05155012142006,46.63211733128685]},"properties":{"NAME":"Florence Bridge"}},{"type":"Feature","geometry":{"type":"Point","coordinates":[-114.06830612961512,46.586023442717725]},"properties":{"NAME":"Poker Joe"}},{"type":"Feature","geometry":{"type":"Point","coordinates":[-112.5197653945508,47.472915429193336]},"properties":{"NAME":"Nilan Reservoir"}},{"type":"Feature","geometry":{"type":"Point","coordinates":[-112.12235446961085,46.929874054407435]},"properties":{"NAME":"Prickly Pear"}},{"type":"Feature","geometry":{"type":"Point","coordinates":[-112.84827572943826,45.777702579505181]},"properties":{"NAME":"George Grant Memorial"}},{"type":"Feature","geometry":{"type":"Point","coordinates":[-112.70257587683905,45.525768352275172]},"properties":{"NAME":"Kalsta Bridge"}},{"type":"Feature","geometry":{"type":"Point","coordinates":[-112.69231740285699,45.546717049822391]},"properties":{"NAME":"Brownes Bridge"}},{"type":"Feature","geometry":{"type":"Point","coordinates":[-112.68806152011241,45.624395702849]},"properties":{"NAME":"Salmon Fly"}},{"type":"Feature","geometry":{"type":"Point","coordinates":[-112.28245209108755,45.686397481886907]},"properties":{"NAME":"Silver Star"}},{"type":"Feature","geometry":{"type":"Point","coordinates":[-112.1184816967754,45.812391448877818]},"properties":{"NAME":"Parrot Castle"}},{"type":"Feature","geometry":{"type":"Point","coordinates":[-112.06324859468172,45.843554305502728]},"properties":{"NAME":"Kountz Bridge"}},{"type":"Feature","geometry":{"type":"Point","coordinates":[-115.40610031137757,47.62890291456187]},"properties":{"NAME":"Flatiron Ridge"}},{"type":"Feature","geometry":{"type":"Point","coordinates":[-111.96304900411126,47.07256384164247]},"properties":{"NAME":"Craig"}},{"type":"Feature","geometry":{"type":"Point","coordinates":[-111.90736611914809,47.125855311307753]},"properties":{"NAME":"Dearborn"}},{"type":"Feature","geometry":{"type":"Point","coordinates":[-111.94577301599547,47.116255934337964]},"properties":{"NAME":"Stickney Creek"}},{"type":"Feature","geometry":{"type":"Point","coordinates":[-111.82705082722313,47.171292434464789]},"properties":{"NAME":"Prewett Creek"}},{"type":"Feature","geometry":{"type":"Point","coordinates":[-111.8353290082805,47.168168701927165]},"properties":{"NAME":"Hardy Bridge"}},{"type":"Feature","geometry":{"type":"Point","coordinates":[-111.82310699944533,47.162560184927187]},"properties":{"NAME":"Mountain Palace"}},{"type":"Feature","geometry":{"type":"Point","coordinates":[-111.77950022613538,47.20094343761734]},"properties":{"NAME":"Pelican Point"}},{"type":"Feature","geometry":{"type":"Point","coordinates":[-109.42729551306981,47.073910274168448]},"properties":{"NAME":"Lazy KB"}},{"type":"Feature","geometry":{"type":"Point","coordinates":[-106.36409235547322,48.048549139442265]},"properties":{"NAME":"School Trust"}},{"type":"Feature","geometry":{"type":"Point","coordinates":[-110.89983835019447,45.20224888306705]},"properties":{"NAME":"Crystal Cross"}},{"type":"Feature","geometry":{"type":"Point","coordinates":[-114.14080613156884,45.969018343252671]},"properties":{"NAME":"Forest Cooper"}},{"type":"Feature","geometry":{"type":"Point","coordinates":[-112.75360759068823,45.114234012443688]},"properties":{"NAME":"Corrals"}},{"type":"Feature","geometry":{"type":"Point","coordinates":[-112.77757559827602,45.100083056962092]},"properties":{"NAME":"Grasshopper"}},{"type":"Feature","geometry":{"type":"Point","coordinates":[-106.44178091601523,48.05553610995463]},"properties":{"NAME":"Fort Peck Dredge Cut Pond"}},{"type":"Feature","geometry":{"type":"Point","coordinates":[-113.38749136070152,46.937550840862798]},"properties":{"NAME":"Three Stall"}},{"type":"Feature","geometry":{"type":"Point","coordinates":[-114.21071283024796,46.929739820864754]},"properties":{"NAME":"Deep Creek"}},{"type":"Feature","geometry":{"type":"Point","coordinates":[-111.3807077416958,47.420621189934892]},"properties":{"NAME":"Cottonwood Grove"}},{"type":"Feature","geometry":{"type":"Point","coordinates":[-110.11437948511239,48.474781176684743]},"properties":{"NAME":"Bailey Reservoir"}},{"type":"Feature","geometry":{"type":"Point","coordinates":[-105.11361714391744,46.856753708945568]},"properties":{"NAME":"Fallon Bridge"}},{"type":"Feature","geometry":{"type":"Point","coordinates":[-107.34205612735364,46.254442603897672]},"properties":{"NAME":"Myers Bridge"}},{"type":"Feature","geometry":{"type":"Point","coordinates":[-105.40329559708142,45.427973832180626]},"properties":{"NAME":"Broadus Bridge"}},{"type":"Feature","geometry":{"type":"Point","coordinates":[-111.97918195429997,46.634844939698716]},"properties":{"NAME":"Upper Prickly Pear"}},{"type":"Feature","geometry":{"type":"Point","coordinates":[-109.35075130379181,47.007656101444752]},"properties":{"NAME":"Hatchery"}},{"type":"Feature","geometry":{"type":"Point","coordinates":[-110.81175848358595,45.260021896034871]},"properties":{"NAME":"Dailey Lake"}},{"type":"Feature","geometry":{"type":"Point","coordinates":[-113.53707307439191,46.330172472585225]},"properties":{"NAME":"Gillies Bridge"}},{"type":"Feature","geometry":{"type":"Point","coordinates":[-105.5374636398345,48.068113227049572]},"properties":{"NAME":"Lewis and Clark"}},{"type":"Feature","geometry":{"type":"Point","coordinates":[-114.64554593499052,47.022144260508306]},"properties":{"NAME":"Lower Osprey"}},{"type":"Feature","geometry":{"type":"Point","coordinates":[-114.62746865503117,47.019521735705816]},"properties":{"NAME":"Middle Osprey"}},{"type":"Feature","geometry":{"type":"Point","coordinates":[-114.59953369882685,47.013902119714103]},"properties":{"NAME":"Upper Osprey"}},{"type":"Feature","geometry":{"type":"Point","coordinates":[-114.7990724331645,47.383474883094941]},"properties":{"NAME":"Paradise Crossing"}},{"type":"Feature","geometry":{"type":"Point","coordinates":[-111.60808701480985,47.340323756878654]},"properties":{"NAME":"Little Muddy Creek"}},{"type":"Feature","geometry":{"type":"Point","coordinates":[-114.69038049329146,47.012610352622225]},"properties":{"NAME":"Ralph's Takeout"}},{"type":"Feature","geometry":{"type":"Point","coordinates":[-109.06095240002294,45.026857050256595]},"properties":{"NAME":"Weymiller"}},{"type":"Feature","geometry":{"type":"Point","coordinates":[-109.34833602504696,45.663300205246237]},"properties":{"NAME":"Holmgren Ranch"}},{"type":"Feature","geometry":{"type":"Point","coordinates":[-107.94822481370986,48.343075194459196]},"properties":{"NAME":"Alkali Creek"}},{"type":"Feature","geometry":{"type":"Point","coordinates":[-107.23920911001272,46.313341456661917]},"properties":{"NAME":"Amelia Island"}},{"type":"Feature","geometry":{"type":"Point","coordinates":[-109.41900175432711,45.537535821239999]},"properties":{"NAME":"Jeffrey's Landing"}},{"type":"Feature","geometry":{"type":"Point","coordinates":[-104.22278032645339,47.573803768030473]},"properties":{"NAME":"Seven Sisters"}},{"type":"Feature","geometry":{"type":"Point","coordinates":[-107.5909847723064,45.844255624465205]},"properties":{"NAME":"Grant Marsh"}},{"type":"Feature","geometry":{"type":"Point","coordinates":[-104.30128420423546,47.475883013229968]},"properties":{"NAME":"Elk Island"}},{"type":"Feature","geometry":{"type":"Point","coordinates":[-114.50671988045261,47.015041614805966]},"properties":{"NAME":"Natural Pier"}},{"type":"Feature","geometry":{"type":"Point","coordinates":[-113.93466268232673,46.881364265190257]},"properties":{"NAME":"Sha-Ron"}},{"type":"Feature","geometry":{"type":"Point","coordinates":[-113.82974009764037,46.88969328294592]},"properties":{"NAME":"Marco Flats"}},{"type":"Feature","geometry":{"type":"Point","coordinates":[-113.80821945841602,46.82216786993893]},"properties":{"NAME":"Turah"}},{"type":"Feature","geometry":{"type":"Point","coordinates":[-113.71845330579718,46.751950159970491]},"properties":{"NAME":"Schwartz Creek"}},{"type":"Feature","geometry":{"type":"Point","coordinates":[-113.57837625290303,46.729188691209416]},"properties":{"NAME":"Beavertail Pond"}},{"type":"Feature","geometry":{"type":"Point","coordinates":[-111.70798303140815,45.443366948397262]},"properties":{"NAME":"Meadow Lake"}},{"type":"Feature","geometry":{"type":"Point","coordinates":[-111.95093536803196,45.853841858063433]},"properties":{"NAME":"Cardwell Bridge"}},{"type":"Feature","geometry":{"type":"Point","coordinates":[-111.70799165253995,45.699425547543377]},"properties":{"NAME":"Harrison Lake"}},{"type":"Feature","geometry":{"type":"Point","coordinates":[-111.75128608162558,45.804011681427191]},"properties":{"NAME":"Sappington Bridge"}},{"type":"Feature","geometry":{"type":"Point","coordinates":[-111.69599021873459,45.802144024281951]},"properties":{"NAME":"Williams' Bridge"}},{"type":"Feature","geometry":{"type":"Point","coordinates":[-111.59402836983359,45.897642523920254]},"properties":{"NAME":"Drouillard"}},{"type":"Feature","geometry":{"type":"Point","coordinates":[-111.52691065534572,45.901386048259653]},"properties":{"NAME":"Blackbird"}},{"type":"Feature","geometry":{"type":"Point","coordinates":[-111.52248398759427,45.646386736352305]},"properties":{"NAME":"Black's Ford"}},{"type":"Feature","geometry":{"type":"Point","coordinates":[-111.2610758982055,45.510366168732567]},"properties":{"NAME":"Kirk Wildlife Refuge"}},{"type":"Feature","geometry":{"type":"Point","coordinates":[-111.20487388402618,45.623399984835842]},"properties":{"NAME":"Axtell Bridge"}},{"type":"Feature","geometry":{"type":"Point","coordinates":[-111.20920665716916,45.673782057592483]},"properties":{"NAME":"Shed's Bridge"}},{"type":"Feature","geometry":{"type":"Point","coordinates":[-111.23905419668199,45.769222876701647]},"properties":{"NAME":"Erwin Bridge"}},{"type":"Feature","geometry":{"type":"Point","coordinates":[-111.29005745639455,45.859962920116352]},"properties":{"NAME":"Four Corners"}},{"type":"Feature","geometry":{"type":"Point","coordinates":[-111.06496507660158,45.724336881218818]},"properties":{"NAME":"Cherry River"}},{"type":"Feature","geometry":{"type":"Point","coordinates":[-111.08124468215033,45.673774248485039]},"properties":{"NAME":"Bozeman Pond"}},{"type":"Feature","geometry":{"type":"Point","coordinates":[-111.44521544873639,46.171997634185978]},"properties":{"NAME":"Toston"}},{"type":"Feature","geometry":{"type":"Point","coordinates":[-111.81165827208486,46.711429741064258]},"properties":{"NAME":"York Bridge"}},{"type":"Feature","geometry":{"type":"Point","coordinates":[-111.90090903697069,46.702437079766703]},"properties":{"NAME":"Causeway"}},{"type":"Feature","geometry":{"type":"Point","coordinates":[-111.87976648697132,46.643549569517909]},"properties":{"NAME":"Helena Valley Reservoir"}},{"type":"Feature","geometry":{"type":"Point","coordinates":[-111.88509596607486,47.125484115470442]},"properties":{"NAME":"Mid Canon"}},{"type":"Feature","geometry":{"type":"Point","coordinates":[-111.44888633060164,47.392794101127627]},"properties":{"NAME":"Lower Smith River"}},{"type":"Feature","geometry":{"type":"Point","coordinates":[-111.67765803372855,47.295253706050651]},"properties":{"NAME":"Wing Dam"}},{"type":"Feature","geometry":{"type":"Point","coordinates":[-106.67770875230737,46.273906700088673]},"properties":{"NAME":"Rosebud East"}},{"type":"Feature","geometry":{"type":"Point","coordinates":[-112.20585346905615,45.411831142929103]},"properties":{"NAME":"Silver Springs Bridge"}},{"type":"Feature","geometry":{"type":"Point","coordinates":[-112.11765827134158,45.319803340756309]},"properties":{"NAME":"Alder Bridge"}},{"type":"Feature","geometry":{"type":"Point","coordinates":[-112.100566090211,45.259935068921337]},"properties":{"NAME":"Vigilante"}},{"type":"Feature","geometry":{"type":"Point","coordinates":[-112.10983420213506,45.24169806017121]},"properties":{"NAME":"Ruby Dam"}},{"type":"Feature","geometry":{"type":"Point","coordinates":[-110.70415197896901,45.397874126284712]},"properties":{"NAME":"Grey Owl"}},{"type":"Feature","geometry":{"type":"Point","coordinates":[-110.70214141910743,45.397632366010704]},"properties":{"NAME":"Chicory"}},{"type":"Feature","geometry":{"type":"Point","coordinates":[-110.63665537216228,45.420457112307801]},"properties":{"NAME":"Dan Bailey"}},{"type":"Feature","geometry":{"type":"Point","coordinates":[-110.62423649663428,45.457220538477948]},"properties":{"NAME":"Loch Leven"}},{"type":"Feature","geometry":{"type":"Point","coordinates":[-110.62163783221411,45.484831546291844]},"properties":{"NAME":"Mallard's Rest"}},{"type":"Feature","geometry":{"type":"Point","coordinates":[-109.91574999586092,45.855087652279607]},"properties":{"NAME":"Otter Creek"}},{"type":"Feature","geometry":{"type":"Point","coordinates":[-109.54858140472982,45.715373040931667]},"properties":{"NAME":"Indian Fort"}},{"type":"Feature","geometry":{"type":"Point","coordinates":[-109.33703441208561,45.575238172647367]},"properties":{"NAME":"Whitebird"}},{"type":"Feature","geometry":{"type":"Point","coordinates":[-109.79713771776024,45.436362210265017]},"properties":{"NAME":"Buffalo Jump"}},{"type":"Feature","geometry":{"type":"Point","coordinates":[-109.75636469708203,45.462963750769745]},"properties":{"NAME":"Moraine"}},{"type":"Feature","geometry":{"type":"Point","coordinates":[-109.50678484810847,45.450745845598014]},"properties":{"NAME":"Rosebud Isle"}},{"type":"Feature","geometry":{"type":"Point","coordinates":[-109.02258512786273,45.10641235777436]},"properties":{"NAME":"Bridger Bend"}},{"type":"Feature","geometry":{"type":"Point","coordinates":[-108.88335255601434,46.104519944112852]},"properties":{"NAME":"Broadview Pond"}},{"type":"Feature","geometry":{"type":"Point","coordinates":[-108.87824574142198,45.606241081740308]},"properties":{"NAME":"Homestead Isle"}},{"type":"Feature","geometry":{"type":"Point","coordinates":[-108.84206485727222,45.612774108207638]},"properties":{"NAME":"Buffalo Mirage"}},{"type":"Feature","geometry":{"type":"Point","coordinates":[-108.46825317341106,45.796565262465023]},"properties":{"NAME":"East Bridge"}},{"type":"Feature","geometry":{"type":"Point","coordinates":[-108.16939217914204,45.995292266780062]},"properties":{"NAME":"Gritty Stone"}},{"type":"Feature","geometry":{"type":"Point","coordinates":[-104.27129424312254,47.586270319117368]},"properties":{"NAME":"Gartside Reservoir"}},{"type":"Feature","geometry":{"type":"Point","coordinates":[-114.6532908563323,47.020755285158771]},"properties":{"NAME":"Tarkio East"}},{"type":"Feature","geometry":{"type":"Point","coordinates":[-112.81502980481513,45.059700605243755]},"properties":{"NAME":"Henneberry"}},{"type":"Feature","geometry":{"type":"Point","coordinates":[-112.8003870617664,45.065611733589421]},"properties":{"NAME":"Pipe Organ"}},{"type":"Feature","geometry":{"type":"Point","coordinates":[-109.44550273792822,47.081764610403461]},"properties":{"NAME":"Carroll Trail"}},{"type":"Feature","geometry":{"type":"Point","coordinates":[-114.10113967092896,46.566744329899045]},"properties":{"NAME":"Bass Creek"}},{"type":"Feature","geometry":{"type":"Point","coordinates":[-114.70141650586432,46.926252403668393]},"properties":{"NAME":"Forks"}},{"type":"Feature","geometry":{"type":"Point","coordinates":[-114.12630602391924,46.444341626781309]},"properties":{"NAME":"Bell Crossing"}},{"type":"Feature","geometry":{"type":"Point","coordinates":[-114.14483617156276,46.313246844703393]},"properties":{"NAME":"Woodside Bridge"}},{"type":"Feature","geometry":{"type":"Point","coordinates":[-114.17494280586477,46.091788842078877]},"properties":{"NAME":"Wally Crawford"}},{"type":"Feature","geometry":{"type":"Point","coordinates":[-114.96362750586077,47.225245661930998]},"properties":{"NAME":"Dry Creek"}},{"type":"Feature","geometry":{"type":"Point","coordinates":[-114.761420523601,47.076212893091736]},"properties":{"NAME":"Forest Grove"}},{"type":"Feature","geometry":{"type":"Point","coordinates":[-114.54269958060627,47.012592459512462]},"properties":{"NAME":"St. John's"}},{"type":"Feature","geometry":{"type":"Point","coordinates":[-114.5791518727528,47.00528733141946]},"properties":{"NAME":"Cyr Bridge"}},{"type":"Feature","geometry":{"type":"Point","coordinates":[-112.74101996932909,46.498737107088033]},"properties":{"NAME":"Kohrs Bend"}},{"type":"Feature","geometry":{"type":"Point","coordinates":[-107.56795768350342,45.753830863135263]},"properties":{"NAME":"Arapooish"}},{"type":"Feature","geometry":{"type":"Point","coordinates":[-107.65866220818322,45.645344887916544]},"properties":{"NAME":"Two Leggins"}},{"type":"Feature","geometry":{"type":"Point","coordinates":[-107.72428493829044,45.521491053924279]},"properties":{"NAME":"Mallard's Landing"}},{"type":"Feature","geometry":{"type":"Point","coordinates":[-106.57696509349181,48.448680903054395]},"properties":{"NAME":"Glasgow Base Pond"}},{"type":"Feature","geometry":{"type":"Point","coordinates":[-106.52521503374084,47.986128567805459]},"properties":{"NAME":"Duck Creek"}},{"type":"Feature","geometry":{"type":"Point","coordinates":[-106.69469344103102,46.263192806684152]},"properties":{"NAME":"Rosebud West"}},{"type":"Feature","geometry":{"type":"Point","coordinates":[-105.15665072649909,48.891407994901684]},"properties":{"NAME":"Whitetail Reservoir"}},{"type":"Feature","geometry":{"type":"Point","coordinates":[-105.71290502804807,46.533591881818239]},"properties":{"NAME":"Kinsey Bridge"}},{"type":"Feature","geometry":{"type":"Point","coordinates":[-111.42856577142659,45.887414888973566]},"properties":{"NAME":"Bud Lilly"}},{"type":"Feature","geometry":{"type":"Point","coordinates":[-112.66589888100566,46.568769466546179]},"properties":{"NAME":"Little Blackfoot"}},{"type":"Feature","geometry":{"type":"Point","coordinates":[-104.72666412883409,47.099941855366694]},"properties":{"NAME":"Black Bridge"}},{"type":"Feature","geometry":{"type":"Point","coordinates":[-105.56785219960864,46.631396342988289]},"properties":{"NAME":"Bonfield"}},{"type":"Feature","geometry":{"type":"Point","coordinates":[-105.74991155108052,46.246893959607995]},"properties":{"NAME":"Twelve Mile Dam"}},{"type":"Feature","geometry":{"type":"Point","coordinates":[-111.87492718707729,45.82255001098131]},"properties":{"NAME":"Limespur"}},{"type":"Feature","geometry":{"type":"Point","coordinates":[-115.0880383695946,47.301979610647024]},"properties":{"NAME":"St. Regis"}},{"type":"Feature","geometry":{"type":"Point","coordinates":[-114.87988344780258,47.193370441393981]},"properties":{"NAME":"Big Eddy"}},{"type":"Feature","geometry":{"type":"Point","coordinates":[-114.73736449818338,47.013776077060456]},"properties":{"NAME":"Tarkio"}},{"type":"Feature","geometry":{"type":"Point","coordinates":[-106.48424881059785,46.280293696087725]},"properties":{"NAME":"Far West"}},{"type":"Feature","geometry":{"type":"Point","coordinates":[-109.42836758498775,47.036398925027093]},"properties":{"NAME":"Big Casino Creek Reservoir"}},{"type":"Feature","geometry":{"type":"Point","coordinates":[-111.52629177989533,45.898602602858624]},"properties":{"NAME":"Milwaukee"}},{"type":"Feature","geometry":{"type":"Point","coordinates":[-115.10831737719616,48.948319371761997]},"properties":{"NAME":"Tetrault Lake"}},{"type":"Feature","geometry":{"type":"Point","coordinates":[-109.65776297853499,48.317000330493187]},"properties":{"NAME":"Bearpaw Lake"}},{"type":"Feature","geometry":{"type":"Point","coordinates":[-112.02843400046841,47.995514912695114]},"properties":{"NAME":"Arod Lake"}},{"type":"Feature","geometry":{"type":"Point","coordinates":[-111.49899039018952,47.42991106577221]},"properties":{"NAME":"Ulm Bridge"}},{"type":"Feature","geometry":{"type":"Point","coordinates":[-112.83753169987546,45.778079660233111]},"properties":{"NAME":"Greenwood Bottoms"}},{"type":"Feature","geometry":{"type":"Point","coordinates":[-112.80117275885661,45.760035463022895]},"properties":{"NAME":"Powerhouse"}},{"type":"Feature","geometry":{"type":"Point","coordinates":[-111.51581336689067,45.772933778737666]},"properties":{"NAME":"Cobblestone"}},{"type":"Feature","geometry":{"type":"Point","coordinates":[-107.46843788493936,48.539055462341551]},"properties":{"NAME":"Cole Ponds"}},{"type":"Feature","geometry":{"type":"Point","coordinates":[-110.89901072962827,47.755858482272473]},"properties":{"NAME":"Carter Ferry"}},{"type":"Feature","geometry":{"type":"Point","coordinates":[-112.46534030190237,47.681880158552502]},"properties":{"NAME":"Pishkun Reservoir"}},{"type":"Feature","geometry":{"type":"Point","coordinates":[-104.51934286608363,47.284327783642361]},"properties":{"NAME":"Intake Dam"}},{"type":"Feature","geometry":{"type":"Point","coordinates":[-111.93735789485788,47.12112993713589]},"properties":{"NAME":"Spite Hill"}},{"type":"Feature","geometry":{"type":"Point","coordinates":[-114.10005486359526,46.866871016056898]},"properties":{"NAME":"Kelly Island"}},{"type":"Feature","geometry":{"type":"Point","coordinates":[-110.22377454354482,46.464673382596153]},"properties":{"NAME":"Selkirk"}},{"type":"Feature","geometry":{"type":"Point","coordinates":[-104.47415334748133,46.332563005855604]},"properties":{"NAME":"South Sandstone"}},{"type":"Feature","geometry":{"type":"Point","coordinates":[-114.14011430842582,45.972829569043675]},"properties":{"NAME":"Hannon Memorial"}},{"type":"Feature","geometry":{"type":"Point","coordinates":[-111.41832534549688,46.027733826518812]},"properties":{"NAME":"Fairweather"}},{"type":"Feature","geometry":{"type":"Point","coordinates":[-111.32781946527587,45.889800247063384]},"properties":{"NAME":"Gallatin Forks"}},{"type":"Feature","geometry":{"type":"Point","coordinates":[-109.96447682403223,45.792937712379469]},"properties":{"NAME":"Big Rock"}},{"type":"Feature","geometry":{"type":"Point","coordinates":[-109.76764856651988,45.752771269231395]},"properties":{"NAME":"Pelican"}},{"type":"Feature","geometry":{"type":"Point","coordinates":[-111.22013393766004,45.737739460679876]},"properties":{"NAME":"Cameron Bridge"}},{"type":"Feature","geometry":{"type":"Point","coordinates":[-111.51419104272523,45.701919404809736]},"properties":{"NAME":"Greycliff"}},{"type":"Feature","geometry":{"type":"Point","coordinates":[-109.63017928336967,45.716697190461012]},"properties":{"NAME":"Bratten"}},{"type":"Feature","geometry":{"type":"Point","coordinates":[-112.69611902373204,45.655589301964007]},"properties":{"NAME":"Maidenrock"}},{"type":"Feature","geometry":{"type":"Point","coordinates":[-110.10873194131281,45.657697534298762]},"properties":{"NAME":"Boulder Forks"}},{"type":"Feature","geometry":{"type":"Point","coordinates":[-109.29626850426783,45.617152217285579]},"properties":{"NAME":"Fireman's Point"}},{"type":"Feature","geometry":{"type":"Point","coordinates":[-109.33163304619977,45.584317615388649]},"properties":{"NAME":"Swinging Bridge"}},{"type":"Feature","geometry":{"type":"Point","coordinates":[-109.46839246983271,45.528870969990663]},"properties":{"NAME":"Absaroka"}},{"type":"Feature","geometry":{"type":"Point","coordinates":[-109.63209695832919,45.514923993570491]},"properties":{"NAME":"Cliff Swallow"}},{"type":"Feature","geometry":{"type":"Point","coordinates":[-109.74105182879767,45.473032807688817]},"properties":{"NAME":"Castle Rock"}},{"type":"Feature","geometry":{"type":"Point","coordinates":[-107.78649372626325,45.414603528877983]},"properties":{"NAME":"Bighorn"}},{"type":"Feature","geometry":{"type":"Point","coordinates":[-109.19197830838866,45.314762236580492]},"properties":{"NAME":"Water Birch"}},{"type":"Feature","geometry":{"type":"Point","coordinates":[-109.20960019280461,45.278503728390504]},"properties":{"NAME":"Bull Springs"}},{"type":"Feature","geometry":{"type":"Point","coordinates":[-109.21951284145344,45.264734914401977]},"properties":{"NAME":"Beaver Lodge"}},{"type":"Feature","geometry":{"type":"Point","coordinates":[-112.67878220260351,45.185477616496648]},"properties":{"NAME":"Poindexter Slough"}},{"type":"Feature","geometry":{"type":"Point","coordinates":[-109.2318083423603,45.237403147184523]},"properties":{"NAME":"Horsethief Station"}},{"type":"Feature","geometry":{"type":"Point","coordinates":[-109.43201677074224,46.328723271113489]},"properties":{"NAME":"Deadman's Basin"}},{"type":"Feature","geometry":{"type":"Point","coordinates":[-110.46641494557612,45.717240062941677]},"properties":{"NAME":"Highway 89 Bridge"}},{"type":"Feature","geometry":{"type":"Point","coordinates":[-111.85195249790313,47.138720506763306]},"properties":{"NAME":"Devils Kitchen"}},{"type":"Feature","geometry":{"type":"Point","coordinates":[-113.16614992692011,45.885351539257648]},"properties":{"NAME":"Sportsman's Park"}},{"type":"Feature","geometry":{"type":"Point","coordinates":[-109.5057545649192,47.111268285279081]},"properties":{"NAME":"Hruska"}},{"type":"Feature","geometry":{"type":"Point","coordinates":[-111.53141156795705,47.404431053122444]},"properties":{"NAME":"Dunes"}},{"type":"Feature","geometry":{"type":"Point","coordinates":[-113.61867614888737,46.952889486992731]},"properties":{"NAME":"Thibodeau Rapids"}},{"type":"Feature","geometry":{"type":"Point","coordinates":[-113.62800515041802,46.948811485066834]},"properties":{"NAME":"Sheep Flats"}},{"type":"Feature","geometry":{"type":"Point","coordinates":[-113.59987014299315,46.942603487102211]},"properties":{"NAME":"Red Rocks"}},{"type":"Feature","geometry":{"type":"Point","coordinates":[-113.43312040341276,46.945991860236326]},"properties":{"NAME":"Roundup"}},{"type":"Feature","geometry":{"type":"Point","coordinates":[-113.37886935396075,46.965486361564132]},"properties":{"NAME":"Six Stall"}},{"type":"Feature","geometry":{"type":"Point","coordinates":[-112.31408367307652,47.877728949249594]},"properties":{"NAME":"Eureka Reservoir"}},{"type":"Feature","geometry":{"type":"Point","coordinates":[-112.40544810016402,47.959894482755345]},"properties":{"NAME":"Bynum Reservoir"}},{"type":"Feature","geometry":{"type":"Point","coordinates":[-111.81533188033696,47.513758517625035]},"properties":{"NAME":"Fort Shaw"}},{"type":"Feature","geometry":{"type":"Point","coordinates":[-110.50548307254121,47.931918884148082]},"properties":{"NAME":"Loma Bridge"}},{"type":"Feature","geometry":{"type":"Point","coordinates":[-109.94100729788381,48.598386412974371]},"properties":{"NAME":"Fresno Tailwater"}},{"type":"Feature","geometry":{"type":"Point","coordinates":[-109.13737865691087,48.262689470297509]},"properties":{"NAME":"Faber Reservoir"}},{"type":"Feature","geometry":{"type":"Point","coordinates":[-109.42941097280038,47.143752444296425]},"properties":{"NAME":"Lower Carter Pond"}},{"type":"Feature","geometry":{"type":"Point","coordinates":[-109.42787120380953,47.155059181219734]},"properties":{"NAME":"Upper Carter Pond"}},{"type":"Feature","geometry":{"type":"Point","coordinates":[-109.4123394744809,47.047113102189222]},"properties":{"NAME":"Brewery Flats"}},{"type":"Feature","geometry":{"type":"Point","coordinates":[-110.28213935687356,46.450617695701077]},"properties":{"NAME":"Martinsdale Reservoir"}},{"type":"Feature","geometry":{"type":"Point","coordinates":[-110.57341686693887,45.607266968425122]},"properties":{"NAME":"Jim Posewitz Free River"}},{"type":"Feature","geometry":{"type":"Point","coordinates":[-110.56504212417497,45.597007600481867]},"properties":{"NAME":"Carter's Bridge"}},{"type":"Feature","geometry":{"type":"Point","coordinates":[-110.583426552503,45.511828649212497]},"properties":{"NAME":"Pine Creek"}},{"type":"Feature","geometry":{"type":"Point","coordinates":[-110.4070609541689,45.730570631804589]},"properties":{"NAME":"Sheep Mountain"}},{"type":"Feature","geometry":{"type":"Point","coordinates":[-110.23136329097781,45.743538478946604]},"properties":{"NAME":"Springdale Bridge"}},{"type":"Feature","geometry":{"type":"Point","coordinates":[-110.86941198392326,45.254765860162387]},"properties":{"NAME":"Point of Rocks"}},{"type":"Feature","geometry":{"type":"Point","coordinates":[-110.84027919974604,45.165641617671426]},"properties":{"NAME":"Slip & Slide"}},{"type":"Feature","geometry":{"type":"Point","coordinates":[-110.78229016607366,45.102017502589298]},"properties":{"NAME":"Brogan's Landing"}},{"type":"Feature","geometry":{"type":"Point","coordinates":[-110.73164306950663,45.043779925130451]},"properties":{"NAME":"Queen of the Waters"}},{"type":"Feature","geometry":{"type":"Point","coordinates":[-110.72551211260829,45.367041593974747]},"properties":{"NAME":"Emigrant"}},{"type":"Feature","geometry":{"type":"Point","coordinates":[-110.72438643821734,45.376577965791533]},"properties":{"NAME":"Emigrant West"}},{"type":"Feature","geometry":{"type":"Point","coordinates":[-113.85249265590265,46.879703542143695]},"properties":{"NAME":"Weigh Station"}},{"type":"Feature","geometry":{"type":"Point","coordinates":[-111.03188317267123,47.627851684344641]},"properties":{"NAME":"Widow Coulee"}},{"type":"Feature","geometry":{"type":"Point","coordinates":[-114.26244189547243,48.211269506437681]},"properties":{"NAME":"Shady Lane"}},{"type":"Feature","geometry":{"type":"Point","coordinates":[-114.16944085471826,46.198936257761339]},"properties":{"NAME":"Angler's Roost"}},{"type":"Feature","geometry":{"type":"Point","coordinates":[-114.0379963179554,48.130626306558668]},"properties":{"NAME":"Echo Lake"}},{"type":"Feature","geometry":{"type":"Point","coordinates":[-114.26550510747215,47.811278713461732]},"properties":{"NAME":"Walstad"}},{"type":"Feature","geometry":{"type":"Point","coordinates":[-112.62576124771107,45.234680538927087]},"properties":{"NAME":"Selway Park"}},{"type":"Feature","geometry":{"type":"Point","coordinates":[-112.92799598270892,46.59028690168828]},"properties":{"NAME":"Gold Creek"}},{"type":"Feature","geometry":{"type":"Point","coordinates":[-106.28588771100382,47.76764054474959]},"properties":{"NAME":"Rock Creek"}},{"type":"Feature","geometry":{"type":"Point","coordinates":[-113.76334121324621,46.896635735126999]},"properties":{"NAME":"Angevine"}},{"type":"Feature","geometry":{"type":"Point","coordinates":[-113.27538154676809,46.17481127986057]},"properties":{"NAME":"Stuart Mill Bay"}},{"type":"Feature","geometry":{"type":"Point","coordinates":[-108.13060597136089,45.996833813707454]},"properties":{"NAME":"Voyagers Rest"}},{"type":"Feature","geometry":{"type":"Point","coordinates":[-107.21654522355382,48.50798854740772]},"properties":{"NAME":"Bjornberg Bridge"}},{"type":"Feature","geometry":{"type":"Point","coordinates":[-107.71839346326367,46.073860509268052]},"properties":{"NAME":"Captain Clark"}},{"type":"Feature","geometry":{"type":"Point","coordinates":[-107.57860136046921,45.926423844422494]},"properties":{"NAME":"General Custer"}},{"type":"Feature","geometry":{"type":"Point","coordinates":[-114.15167923825818,46.898572675983068]},"properties":{"NAME":"Kona Bridge"}},{"type":"Feature","geometry":{"type":"Point","coordinates":[-111.63161994584763,47.540221449185303]},"properties":{"NAME":"Largent's Bend"}},{"type":"Feature","geometry":{"type":"Point","coordinates":[-114.2077918440156,46.931510985690181]},"properties":{"NAME":"Harper's Bridge"}},{"type":"Feature","geometry":{"type":"Point","coordinates":[-114.2041412937202,48.22052833487853]},"properties":{"NAME":"McWenneger Slough"}},{"type":"Feature","geometry":{"type":"Point","coordinates":[-104.6551563412645,47.209623499016253]},"properties":{"NAME":"Stipek"}},{"type":"Feature","geometry":{"type":"Point","coordinates":[-111.99788941051592,47.001497114829171]},"properties":{"NAME":"Bull Pasture"}},{"type":"Feature","geometry":{"type":"Point","coordinates":[-108.91495850727166,45.264291796138686]},"properties":{"NAME":"Clarks Fork Yellowstone"}},{"type":"Feature","geometry":{"type":"Point","coordinates":[-109.83759738271112,46.428997361283635]},"properties":{"NAME":"Harlowton"}},{"type":"Feature","geometry":{"type":"Point","coordinates":[-108.01181922875391,45.995506115137836]},"properties":{"NAME":"Bundy Bridge"}},{"type":"Feature","geometry":{"type":"Point","coordinates":[-111.91491300958042,46.707121814603639]},"properties":{"NAME":"Lake Helena"}},{"type":"Feature","geometry":{"type":"Point","coordinates":[-110.49252975152147,45.750246032168931]},"properties":{"NAME":"Grannis"}},{"type":"Feature","geometry":{"type":"Point","coordinates":[-114.28739762676624,48.249928130458805]},"properties":{"NAME":"Pine Grove Pond"}},{"type":"Feature","geometry":{"type":"Point","coordinates":[-111.54809981263695,45.623207596782841]},"properties":{"NAME":"Damselfly"}},{"type":"Feature","geometry":{"type":"Point","coordinates":[-114.02496568702398,48.458892754727877]},"properties":{"NAME":"Paul's Memorial"}},{"type":"Feature","geometry":{"type":"Point","coordinates":[-111.96534723686615,47.055702087640448]},"properties":{"NAME":"Lone Tree"}},{"type":"Feature","geometry":{"type":"Point","coordinates":[-113.38057687075448,47.021606136608888]},"properties":{"NAME":"Harpers Lake"}},{"type":"Feature","geometry":{"type":"Point","coordinates":[-112.0111228639705,47.019832966460875]},"properties":{"NAME":"Wolf Creek Bridge"}},{"type":"Feature","geometry":{"type":"Point","coordinates":[-111.5925978530493,44.899102421348431]},"properties":{"NAME":"Lyons Bridge"}},{"type":"Feature","geometry":{"type":"Point","coordinates":[-105.85663462998912,46.4208122714059]},"properties":{"NAME":"Roche Jaune"}},{"type":"Feature","geometry":{"type":"Point","coordinates":[-113.99098488210791,48.026237701781831]},"properties":{"NAME":"Loon Lake/Ferndale"}},{"type":"Feature","geometry":{"type":"Point","coordinates":[-110.06636460683805,45.786411539185622]},"properties":{"NAME":"Grey Bear"}}]}